FMT, 128, 89, FMT, BBnNZ, Type,Length,Name,Format,Columns
FMT, 177, 76, UNIT, QbZ, TimeUS,Id,Label
FMT, 176, 44, FMTU, QBNN, TimeUS,FmtType,UnitIds,MultIds
FMT, 178, 20, MULT, Qbd, TimeUS,Id,Mult
FMT, 64, 31, PARM, QNf, TimeUS,Name,Value
FMT, 91, 51, GPS, QBBIHBcLLeffffB, TimeUS,I,Status,GMS,GWk,NSats,HDop,Lat,Lng,Alt,Spd,GCrs,VZ,Yaw,U
FMT, 173, 31, GPA, QBCCCCfBIH, TimeUS,I,VDop,HAcc,VAcc,SAcc,YAcc,VV,SMS,Delta
FMT, 92, 54, IMU, QBffffffIIfBBHH, TimeUS,I,GyrX,GyrY,GyrZ,AccX,AccY,AccZ,EG,EA,T,GH,AH,GHz,AHz
FMT, 93, 75, MSG, QZ, TimeUS,Message
FMT, 94, 39, RCIN, QHHHHHHHHHHHHHH, TimeUS,C1,C2,C3,C4,C5,C6,C7,C8,C9,C10,C11,C12,C13,C14
FMT, 95, 15, RCI2, QHH, TimeUS,C15,C16
FMT, 96, 39, RCOU, QHHHHHHHHHHHHHH, TimeUS,C1,C2,C3,C4,C5,C6,C7,C8,C9,C10,C11,C12,C13,C14
FMT, 97, 15, RSSI, Qf, TimeUS,RXRSSI
FMT, 98, 39, BARO, QBffcfIffB, TimeUS,I,Alt,Press,Temp,CRt,SMS,Offset,GndTemp,Health
FMT, 99, 24, POWR, QffHHB, TimeUS,Vcc,VServo,Flags,AccFlags,Safety
FMT, 102, 46, CMD, QHHHffffLLfB, TimeUS,CTot,CNum,CId,Prm1,Prm2,Prm3,Prm4,Lat,Lng,Alt,Frame
FMT, 103, 48, MAVC, QBBBHBBffffiifBB, TimeUS,TS,TC,Fr,Cmd,Cur,AC,P1,P2,P3,P4,X,Y,Z,Res,WL
FMT, 104, 20, RAD, QBBBBBHH, TimeUS,RSSI,RemRSSI,TxBuf,Noise,RemNoise,RxErrors,Fixed
FMT, 106, 43, CAM, QIHLLeeeccC, TimeUS,GPSTime,GPSWeek,Lat,Lng,Alt,RelAlt,GPSAlt,Roll,Pitch,Yaw
FMT, 187, 43, TRIG, QIHLLeeeccC, TimeUS,GPSTime,GPSWeek,Lat,Lng,Alt,RelAlt,GPSAlt,Roll,Pitch,Yaw
FMT, 113, 37, ARSP, QBffcffBBfB, TimeUS,I,Airspeed,DiffPress,Temp,RawPress,Offset,U,H,Hfp,Pri
FMT, 115, 38, BAT, QBfffffcf, TimeUS,Instance,Volt,VoltR,Curr,CurrTot,EnrgTot,Temp,Res
FMT, 116, 40, BCL, QBfHHHHHHHHHHHH, TimeUS,Instance,Volt,V1,V2,V3,V4,V5,V6,V7,V8,V9,V10,V11,V12
FMT, 114, 28, ATT, QccccCCCCB, TimeUS,DesRoll,Roll,DesPitch,Pitch,DesYaw,Yaw,ErrRP,ErrYaw,AEKF
FMT, 117, 35, MAG, QBhhhhhhhhhBI, TimeUS,I,MagX,MagY,MagZ,OfsX,OfsY,OfsZ,MOX,MOY,MOZ,Health,S
FMT, 118, 14, MODE, QMBB, TimeUS,Mode,ModeNum,Rsn
FMT, 174, 16, RFND, QBCBB, TimeUS,Instance,Dist,Stat,Orient
FMT, 175, 36, DMS, QIIIIBBBBBBBBB, TimeUS,N,Dp,RT,RS,Fa,Fmn,Fmx,Pa,Pmn,Pmx,Sa,Smn,Smx
FMT, 193, 41, BCN, QBBfffffff, TimeUS,Health,Cnt,D0,D1,D2,D3,PosX,PosY,PosZ
FMT, 194, 56, PRX, QBfffffffffff, TimeUS,Health,D0,D45,D90,D135,D180,D225,D270,D315,DUp,CAn,CDis
FMT, 199, 51, PM, QHHIIHHIIIIII, TimeUS,NLon,NLoop,MaxT,Mem,Load,ErrL,IntE,ErrC,SPIC,I2CC,I2CI,Ex
FMT, 196, 29, SRTL, QBHHBfff, TimeUS,Active,NumPts,MaxPts,Action,N,E,D
FMT, 207, 48, OABR, QBBHHHBfLLfLLf, TimeUS,Type,Act,DYaw,Yaw,DP,RChg,Mar,DLt,DLg,DAlt,OLt,OLg,OAlt
FMT, 208, 31, OADJ, QBBBBLLLL, TimeUS,State,Err,CurrPoint,TotPoints,DLat,DLng,OALat,OALng
FMT, 210, 29, SA, QBffffB, TimeUS,State,DVelX,DVelY,MVelX,MVelY,Back
FMT, 100, 45, AHR2, QccCfLLffff, TimeUS,Roll,Pitch,Yaw,Alt,Lat,Lng,Q1,Q2,Q3,Q4
FMT, 163, 31, POS, QLLfff, TimeUS,Lat,Lng,Alt,RelHomeAlt,RelOriginAlt
FMT, 101, 45, SIM, QccCfLLffff, TimeUS,Roll,Pitch,Yaw,Alt,Lat,Lng,Q1,Q2,Q3,Q4
FMT, 107, 34, TERR, QBLLHffHH, TimeUS,Status,Lat,Lng,Spacing,TerrH,CHeight,Pending,Loaded
FMT, 108, 22, UBX1, QBHBBHI, TimeUS,Instance,noisePerMS,jamInd,aPower,agcCnt,config
FMT, 109, 16, UBX2, QBbBbB, TimeUS,Instance,ofsI,magI,ofsQ,magQ
FMT, 119, 42, GRAW, QIHBBddfBbB, TimeUS,WkMS,Week,numSV,sv,cpMes,prMes,doMes,mesQI,cno,lli
FMT, 120, 24, GRXH, QdHbBB, TimeUS,rcvTime,week,leapS,numMeas,recStat
FMT, 160, 41, GRXS, QddfBBBHBBBBB, TimeUS,prMes,cpMes,doMes,gnss,sv,freq,lock,cno,prD,cpD,doD,trk
FMT, 110, 30, ESC, QBeCCcHcf, TimeUS,Instance,RPM,Volt,Curr,Temp,CTot,MotTemp,Err
FMT, 111, 25, CSRV, QBfffB, TimeUS,Id,Pos,Force,Speed,Pow
FMT, 112, 33, CESC, QBIfffiB, TimeUS,Id,ECnt,Voltage,Curr,Temp,RPM,Pow
FMT, 161, 32, ACC, QBQfff, TimeUS,I,SampleUS,AccX,AccY,AccZ
FMT, 162, 32, GYR, QBQfff, TimeUS,I,SampleUS,GyrX,GyrY,GyrZ
FMT, 164, 44, PIDR, QffffffffB, TimeUS,Tar,Act,Err,P,I,D,FF,Dmod,Limit
FMT, 165, 44, PIDP, QffffffffB, TimeUS,Tar,Act,Err,P,I,D,FF,Dmod,Limit
FMT, 166, 44, PIDY, QffffffffB, TimeUS,Tar,Act,Err,P,I,D,FF,Dmod,Limit
FMT, 167, 44, PIDA, QffffffffB, TimeUS,Tar,Act,Err,P,I,D,FF,Dmod,Limit
FMT, 168, 44, PIDS, QffffffffB, TimeUS,Tar,Act,Err,P,I,D,FF,Dmod,Limit
FMT, 169, 56, DSTL, QBfLLeccfeffff, TimeUS,Stg,THdg,Lat,Lng,Alt,XT,Travel,L1I,Loiter,Des,P,I,D
FMT, 170, 28, VIBE, QBfffI, TimeUS,IMU,VibeX,VibeY,VibeZ,Clip
FMT, 197, 31, ISBH, QHBBHHQf, TimeUS,N,type,instance,mul,smp_cnt,SampleUS,smp_rate
FMT, 198, 207, ISBD, QHHaaa, TimeUS,N,seqno,x,y,z
FMT, 171, 24, ORGN, QBLLe, TimeUS,Type,Lat,Lng,Alt
FMT, 129, 15, RFRH, QI, TimeUS,TF
FMT, 130, 5, RFRF, BB, FTypes,Slow
FMT, 138, 38, RFRN, IIIfIfffBBB, HLat,HLon,HAlt,E2T,AM,TX,TY,TZ,VC,EKT,Flags
FMT, 131, 4, REV2, B, Event
FMT, 132, 15, RSO2, III, Lat,Lon,Alt
FMT, 133, 7, RWA2, f, Airspeed
FMT, 134, 4, REV3, B, Event
FMT, 135, 15, RSO3, III, Lat,Lon,Alt
FMT, 136, 7, RWA3, f, Airspeed
FMT, 137, 16, REY3, ffIB, yawangle,yawangleerr,timestamp_ms,type
FMT, 139, 13, RISH, HBBfBB, LR,PG,PA,LD,AC,GC
FMT, 140, 37, RISI, ffffffffBB, DVX,DVY,DVZ,DAX,DAY,DAZ,DVDT,DADT,Flags,I
FMT, 148, 5, RASH, BB, Primary,NumInst
FMT, 149, 14, RASI, fIBBB, pd,UpdateMS,H,Use,I
FMT, 141, 5, RBRH, BB, Primary,NumInst
FMT, 142, 13, RBRI, IfBB, LastUpdate,Alt,H,I
FMT, 143, 8, RRNH, hhB, GCl,MaxD,NumSensors
FMT, 144, 20, RRNI, fffHBBB, PX,PY,PZ,Dist,Orient,Status,I
FMT, 145, 5, RGPH, BB, NumInst,Primary
FMT, 146, 23, RGPI, ffffBBBB, OX,OY,OZ,Lg,Flags,Stat,NSats,I
FMT, 147, 54, RGPJ, IffffffiiiffHB, TS,VX,VY,VZ,SA,Y,YA,Lat,Lon,Alt,HA,VA,HD,I
FMT, 153, 12, RMGH, BBfBBB, Dec,NumInst,AutoDec,NumEna,LOE,C
FMT, 154, 35, RMGI, IffffffBBBB, LU,OX,OY,OZ,FX,FY,FZ,UFY,H,HSF,I
FMT, 150, 33, RBCH, ffffiiiBB, PX,PY,PZ,AE,OLat,OLng,OAlt,Flags,NumInst
FMT, 151, 25, RBCI, IffffBB, LU,PX,PY,PZ,Dist,H,I
FMT, 152, 21, RVOH, fffIBB, OX,OY,OZ,Del,H,Ena
FMT, 155, 36, ROFH, ffffIfffB, FX,FY,GX,GY,Tms,PX,PY,PZ,Qual
FMT, 156, 49, REPH, fffffffffIIH, PX,PY,PZ,Q1,Q2,Q3,Q4,PEr,AEr,TS,RT,D
FMT, 157, 25, REVH, ffffIH, VX,VY,VZ,Er,TS,D
FMT, 158, 31, RWOH, ffIffff, DA,DT,TS,PX,PY,PZ,R
FMT, 159, 53, RBOH, ffffffffIfffH, Q,DPX,DPY,DPZ,DAX,DAY,DAZ,DT,TS,OX,OY,OZ,D
FMT, 65, 37, NKF0, QBBccCCcccccccc, TimeUS,C,ID,rng,innov,SIV,TR,BPN,BPE,BPD,OFH,OFL,OFN,OFE,OFD
FMT, 66, 56, NKF1, QBccCfffffffccce, TimeUS,C,Roll,Pitch,Yaw,VN,VE,VD,dPD,PN,PE,PD,GX,GY,GZ,OH
FMT, 67, 36, NKF2, QBbccccchhhhhhB, TimeUS,C,AZbias,GSX,GSY,GSZ,VWN,VWE,MN,ME,MD,MX,MY,MZ,MI
FMT, 68, 42, NKF3, QBcccccchhhccff, TimeUS,C,IVN,IVE,IVD,IPN,IPE,IPD,IMX,IMY,IMZ,IYAW,IVT,RErr,ErSc
FMT, 69, 38, NKF4, QBcccccfbbHBIHb, TimeUS,C,SV,SP,SH,SM,SVT,errRP,OFN,OFE,FS,TS,SS,GPS,PI
FMT, 70, 41, NKF5, QBBhhhcccCCfff, TimeUS,C,NI,FIX,FIY,AFI,HAGL,offset,RI,rng,Herr,eAng,eVel,ePos
FMT, 71, 28, NKQ, QBffff, TimeUS,C,Q1,Q2,Q3,Q4
FMT, 72, 48, NKT, QBIffffffff, TimeUS,C,Cnt,IMUMin,IMUMax,EKFMin,EKFMax,AngMin,AngMax,VMin,VMax
FMT, 73, 60, NKY0, QBffffffffffff, TimeUS,C,YC,YCS,Y0,Y1,Y2,Y3,Y4,W0,W1,W2,W3,W4
FMT, 74, 52, NKY1, QBffffffffff, TimeUS,C,IVN0,IVN1,IVN2,IVN3,IVN4,IVE0,IVE1,IVE2,IVE3,IVE4
FMT, 75, 37, XKF0, QBBccCCcccccccc, TimeUS,C,ID,rng,innov,SIV,TR,BPN,BPE,BPD,OFH,OFL,OFN,OFE,OFD
FMT, 76, 56, XKF1, QBccCfffffffccce, TimeUS,C,Roll,Pitch,Yaw,VN,VE,VD,dPD,PN,PE,PD,GX,GY,GZ,OH
FMT, 77, 46, XKF2, QBccccchhhhhhfff, TimeUS,C,AX,AY,AZ,VWN,VWE,MN,ME,MD,MX,MY,MZ,IDX,IDY,IS
FMT, 78, 42, XKF3, QBcccccchhhccff, TimeUS,C,IVN,IVE,IVD,IPN,IPE,IPD,IMX,IMY,IMZ,IYAW,IVT,RErr,ErSc
FMT, 79, 38, XKF4, QBcccccfbbHBIHb, TimeUS,C,SV,SP,SH,SM,SVT,errRP,OFN,OFE,FS,TS,SS,GPS,PI
FMT, 80, 41, XKF5, QBBhhhcccCCfff, TimeUS,C,NI,FIX,FIY,AFI,HAGL,offset,RI,rng,Herr,eAng,eVel,ePos
FMT, 81, 36, XKFD, QBffffff, TimeUS,C,IX,IY,IZ,IVX,IVY,IVZ
FMT, 82, 29, XKFM, QBBffff, TimeUS,C,OGNM,GLR,ALR,GDR,ADR
FMT, 83, 16, XKFS, QBBBBB, TimeUS,C,MI,BI,GI,AI
FMT, 84, 28, XKQ, QBffff, TimeUS,C,Q1,Q2,Q3,Q4
FMT, 85, 48, XKT, QBIffffffff, TimeUS,C,Cnt,IMUMin,IMUMax,EKFMin,EKFMax,AngMin,AngMax,VMin,VMax
FMT, 86, 20, XKTV, QBff, TimeUS,C,TVS,TVD
FMT, 89, 60, XKY0, QBffffffffffff, TimeUS,C,YC,YCS,Y0,Y1,Y2,Y3,Y4,W0,W1,W2,W3,W4
FMT, 90, 52, XKY1, QBffffffffff, TimeUS,C,IVN0,IVN1,IVN2,IVN3,IVN4,IVE0,IVE1,IVE2,IVE3,IVE4
FMT, 87, 60, XKV1, QBffffffffffff, TimeUS,C,V00,V01,V02,V03,V04,V05,V06,V07,V08,V09,V10,V11
FMT, 88, 60, XKV2, QBffffffffffff, TimeUS,C,V12,V13,V14,V15,V16,V17,V18,V19,V20,V21,V22,V23
FMT, 195, 33, DSF, QIHIIII, TimeUS,Dp,Blk,Bytes,FMn,FMx,FAv
FMT, 172, 19, RPM, Qff, TimeUS,rpm1,rpm2
FMT, 188, 59, RATE, Qffffffffffff, TimeUS,RDes,R,ROut,PDes,P,POut,YDes,Y,YOut,ADes,A,AOut
FMT, 189, 23, RALY, QBBLLh, TimeUS,Tot,Seq,Lat,Lng,Alt
FMT, 203, 23, MAV, QBHHHBHH, TimeUS,chan,txp,rxp,rxdp,flags,ss,tf
FMT, 190, 43, VISO, Qffffffff, TimeUS,dt,AngDX,AngDY,AngDZ,PosDX,PosDY,PosDZ,conf
FMT, 191, 57, VISP, QQIffffffffBB, TimeUS,RTimeUS,CTimeMS,PX,PY,PZ,Roll,Pitch,Yaw,PErr,AErr,Rst,Ign
FMT, 209, 41, VISV, QQIffffBB, TimeUS,RTimeUS,CTimeMS,VX,VY,VZ,VErr,Rst,Ign
FMT, 200, 28, OF, QBffff, TimeUS,Qual,flowX,flowY,bodyX,bodyY
FMT, 202, 21, WENC, Qfbfb, TimeUS,Dist0,Qual0,Dist1,Qual1
FMT, 205, 35, ADSB, QIiiiHHhH, TimeUS,ICAO_address,Lat,Lng,Alt,Heading,Hor_vel,Ver_vel,Squark
FMT, 201, 12, EV, QB, TimeUS,Id
FMT, 206, 18, ARM, QBIBB, TimeUS,ArmState,ArmChecks,Forced,Method
FMT, 204, 13, ERR, QBB, TimeUS,Subsys,ECode
FMT, 211, 35, WINC, QBBBBBfffHfb, TimeUS,Heal,ThEnd,Mov,Clut,Mode,DLen,Len,DRate,Tens,Vcc,Temp
FMT, 212, 59, PSC, Qffffffffffff, TimeUS,TPX,TPY,PX,PY,TVX,TVY,VX,VY,TAX,TAY,AX,AY
FMT, 179, 23, SBPH, QIII, TimeUS,CrcError,LastInject,IARhyp
FMT, 184, 67, SBRH, QQQQQQQQ, TimeUS,msg_flag,1,2,3,4,5,6
FMT, 185, 123, SBRM, QQQQQQQQQQQQQQQ, TimeUS,msg_flag,1,2,3,4,5,6,7,8,9,10,11,12,13
FMT, 186, 23, SBRE, QHIiBB, TimeUS,GWk,GMS,ns_residual,level,quality
FMT, 7, 24, PTUN, QBfff, TimeUS,Param,TunVal,TunMin,TunMax
FMT, 0, 55, CTUN, Qffffffefffhh, TimeUS,ThI,ABst,ThO,ThH,DAlt,Alt,BAlt,DSAlt,SAlt,TAlt,DCRt,CRt
FMT, 6, 27, MOTB, Qffff, TimeUS,LiftMax,BatVolt,BatRes,ThLimit
FMT, 1, 14, D16, QBh, TimeUS,Id,Value
FMT, 2, 14, DU16, QBH, TimeUS,Id,Value
FMT, 3, 16, D32, QBi, TimeUS,Id,Value
FMT, 4, 16, DU32, QBI, TimeUS,Id,Value
FMT, 5, 16, DFLT, QBf, TimeUS,Id,Value
FMT, 9, 50, PL, QBBfffffffIIB, TimeUS,Heal,TAcq,pX,pY,vX,vY,mX,mY,mZ,LastMeasMS,EKFOutl,Est
FMT, 11, 47, SIDD, Qfffffffff, TimeUS,Time,Targ,F,Gx,Gy,Gz,Ax,Ay,Az
FMT, 12, 40, SIDS, QBfffffff, TimeUS,Ax,Mag,FSt,FSp,TFin,TC,TR,TFout
FMT, 10, 36, GUID, QBffffff, TimeUS,Type,pX,pY,pZ,vX,vY,vZ
MSG, 3196863243, ArduCopter V4.1.0-dev (5120ebf2)
MSG, 3196863243, MrLenovo
MSG, 3196863243, Param space used: 277/4096
MSG, 3196863243, RC Protocol: SITL
MSG, 3196863243, New mission
MSG, 3196863243, New rally
MSG, 3196863243, Frame: QUAD
MODE, 3196863243, Guided, 4, 2
MSG, 3196863243, GPS 1: detected as u-blox at 230400 baud
ARM, 3198001121, 1, 1, 0, 1
EV, 3198001121, 10
MSG, 3198001121, Arming motors
D32, 3198001121, 9, 22138
ORGN, 3198001121, 0, -35.363261, 149.1652299, 584.03
ORGN, 3198001121, 1, -35.3632566, 149.1652309, 584.02
SRTL, 3198001121, 1, 1, 300, 0, 0.4988264, 0.09712813, 3.80058E-06
SRTL, 3198001121, 1, 1, 300, 0, 0.4988264, 0.09712813, 3.80058E-06
MODE, 3198001121, Guided, 4, 2
MAVC, 3198001121, 1, 1, 3, 400, 0, 0, 1, 0, 0, 0, 0, 0, 0, 0, 1
GPS, 3198013616, 0, 6, 488687000, 2139, 10, 1.21, -35.363257, 149.165231, 584.09, 0, 7.125, 0, 0, 1
GPA, 3198013616, 0, 2, 0.3, 0.3, 0.04, 0, 1, 3197983, 200
IMU, 3198033608, 0, 0.002834581, 0.002823574, 0.002870093, 0.0002680536, -0.001323271, -9.816831, 0, 0, 23, 1, 1, 999, 999
IMU, 3198033608, 1, 0.002770077, 0.002668599, 0.002816998, -0.004858435, -0.001680151, -9.815432, 0, 0, 23, 1, 1, 760, 799
BAT, 3198073592, 0, 12.58798, 12.58898, 0, 1604.946, 20.20303, 0, 0.001728275
MAG, 3198073592, 0, -200, 107, -538, 5, 13, -18, 0, 0, 0, 1, 3198073592
MAG, 3198073592, 1, -200, 107, -538, 5, 13, -18, 0, 0, 0, 1, 3198073592
MAG, 3198073592, 2, -200, 107, -538, 5, 13, -18, 0, 0, 0, 1, 3198073592
BARO, 3198073592, 0, 0, 94502.7, 35, 0, 3198073, 0, 25.52884, 1
BARO, 3198073592, 1, -0.01095548, 94503.84, 35, 0, 3198073, 0, 25.52884, 1
CTUN, 3198073592, 4.372001E-05, 7.922127E-10, 2.867389E-05, 0.3769027, -2.359979E-05, -2.359979E-05, 0, NaN, 0, 0.0099764, 0, 0
FMT, 252, 28, FTN, QBffff, TimeUS,NDn,DnF1,DnF2,DnF3,DnF4
FTN, 3198073592, 1, 80, 0, 0, 0
ATT, 3198073592, 0, 0.24, 0, 0.24, 221.38, 221.39, 0, 0, 2
RATE, 3198073592, -1.102836, 0.05960293, -0.002757975, -1.088391, 0.06657123, -0.002728269, 0.002360109, 0.06443354, -0.0002018117, 0, -0.08707047, 2.867389E-05
NKF1, 3198073592, 0, 0.24, 0.24, 221.38, 0.07879063, -0.003810352, 0.0005943248, 0.000222324, 0.4997963, 0.09708702, 2.359979E-05, 0.1, 0.09, 0.09, 584.03
NKF2, 3198073592, 0, -1, 0.16, 0.17, 0, 0, 0, 222, 47, -536, 0, -1, -2, 0
NKF3, 3198073592, 0, 0.06, 0, 0, 0.03, 0, 0, 4, 1, -1, 1.03, 0, 0, 0
NKF4, 3198073592, 0, 0.02, 0, 0, 0.01, 0, 0.0002926303, 0, 0, 0, 16, 109375, 0, 0
NKF5, 3198073592, 0, 0, 0, 0, 0, 0.13, 0.13, 0, 0, 0.5, 0.0006756821, 0.002819989, 0.003502852
NKQ, 3198073592, 0, 0.353331, 0.002730935, -0.001254865, -0.9354935
NKT, 3198073592, 0, 56682, 0.0025, 0.0025, 0.009982474, 0.01001496, 0.009163, 0.010829, 0.009163, 0.010829
NKF1, 3198073592, 1, 0.24, 0.24, 221.4, 0.07828785, -0.003426531, 0.0003824391, -0.0001009705, 0.4995276, 0.09715698, 0.0005760308, 0.1, 0.09, 0.09, 584.09
NKF2, 3198073592, 1, -1, 0.16, 0.17, 0, 0, 0, 222, 47, -536, 0, -1, -2, 0
NKF3, 3198073592, 1, 0.06, 0, 0, 0.03, 0, 0, 4, 1, -1, 1.05, 0, 0, 0
NKF4, 3198073592, 1, 0.02, 0, 0, 0.01, 0, 0.0002926011, 0, 0, 0, 16, 109375, 0, 0
NKQ, 3198073592, 1, 0.3534918, 0.00272582, -0.001265521, -0.9354328
AHR2, 3198073592, 0.1, 0.09, 220.3, 584.02, -35.363257, 149.165231, -0.3444901, -0.001062038, 0.000564139, 0.9387892
SIM, 3198073592, 0, 0, 220.1, 584.1, -35.363257, 149.165231, -0.3429095, 0, 0, 0.9393684
POS, 3198073592, -35.3632566, 149.1652309, 584.02, 0.0099764, -2.359979E-05
MOTB, 3198073592, 0.9729814, 0.9835181, 0.001728275, 1
RCIN, 3198073592, 1500, 1500, 1000, 1500, 1800, 1000, 1000, 1800, 0, 0, 0, 0, 0, 0
RCOU, 3198073592, 1000, 1000, 1000, 1000, 0, 0, 0, 0, 0, 0, 0, 0, 0, 0
PSC, 3198073592, 0.5763737, 0.09307611, 0.4997962, 0.09708702, 0, 0, 0.07879063, -0.003810352, 0.05800321, -0.004107371, 0.05880478, -0.004099138
VIBE, 3198073592, 0, 0.004019619, 0.004064356, 0.003835862, 0
VIBE, 3198073592, 1, 0.007959928, 0.00696704, 0.00810187, 0
FMT, 251, 31, CTRL, Qfffff, TimeUS,RMSRollP,RMSRollD,RMSPitchP,RMSPitchD,RMSYaw
CTRL, 3198073592, 0.002728801, 8.499401E-06, 0.002710434, 1.116552E-05, 0.0002018344
IMU, 3198073592, 0, 0.00286796, 0.002870981, 0.002765535, -0.001984381, 0.000102823, -9.816916, 0, 0, 23, 1, 1, 999, 999
IMU, 3198073592, 1, 0.002854746, 0.003125214, 0.002775928, -0.003878252, -0.002048881, -9.820445, 0, 0, 23, 1, 1, 760, 799
IMU, 3198113576, 0, 0.002810555, 0.002746464, 0.002794113, -0.0010408, 0.0008704699, -9.817348, 0, 0, 23, 1, 1, 999, 999
IMU, 3198113576, 1, 0.002855657, 0.002825884, 0.002974875, 0.0006315529, -0.001366424, -9.820147, 0, 0, 23, 1, 1, 760, 799
IMU, 3198153560, 0, 0.002862621, 0.002830605, 0.002817293, -0.0003909279, 0.0007152691, -9.816592, 0, 0, 23, 1, 1, 999, 999
IMU, 3198153560, 1, 0.002864024, 0.002668548, 0.002511219, -0.001998995, -0.0003739389, -9.817924, 0, 0, 23, 1, 1, 760, 799
BAT, 3198173552, 0, 12.58798, 12.58898, 0, 1604.946, 20.20303, 0, 0.001728275
MAG, 3198173552, 0, -200, 107, -538, 5, 13, -18, 0, 0, 0, 1, 3198173552
MAG, 3198173552, 1, -200, 107, -538, 5, 13, -18, 0, 0, 0, 1, 3198173552
MAG, 3198173552, 2, -200, 107, -538, 5, 13, -18, 0, 0, 0, 1, 3198173552
BARO, 3198173552, 0, 0, 94502.7, 35, 0, 3198173, 0, 25.52884, 1
BARO, 3198173552, 1, 0.04108304, 94503.28, 35, 0, 3198173, 0, 25.52884, 1
CTUN, 3198173552, 1.013279E-06, 1.836076E-11, 2.79589E-05, 0.3769027, -3.92303E-05, -3.92303E-05, 0, NaN, 0, 0.00996077, 0, 0
FTN, 3198173552, 1, 80, 0, 0, 0
ATT, 3198173552, 0, 0.24, 0, 0.24, 221.38, 221.39, 0, 0, 2
RATE, 3198173552, -1.103095, 0.06109065, -0.00274405, -1.088128, 0.06756859, -0.002734812, 0.002302607, 0.0679731, -0.0002004371, 0, -0.002098083, 2.79589E-05
NKF1, 3198173552, 0, 0.24, 0.24, 221.38, 0.07847875, -0.003843403, 0.0006205033, 0.0001932196, 0.4992972, 0.09711505, 3.92303E-05, 0.1, 0.09, 0.09, 584.03
NKF2, 3198173552, 0, -1, 0.16, 0.17, 0, 0, 0, 222, 47, -536, 0, -1, -2, 0
NKF3, 3198173552, 0, 0.06, 0, 0, 0.03, 0, 0, 4, 1, -1, 1.04, 0, 0, 0
NKF4, 3198173552, 0, 0.02, 0, 0, 0.01, 0, 0.0002929469, 0, 0, 0, 16, 109375, 0, 0
NKF5, 3198173552, 0, 0, 0, 0, 0, 0.13, 0.13, 0, 0, 0.5, 0.0008277512, 0.002024071, 0.002615032
NKQ, 3198173552, 0, 0.3533647, 0.002730782, -0.001255418, -0.9354808
NKF1, 3198173552, 1, 0.24, 0.24, 221.4, 0.07785884, -0.003436826, 0.0003044091, -0.0001357824, 0.4989995, 0.09722216, 0.0005664176, 0.1, 0.09, 0.09, 584.09
NKF2, 3198173552, 1, -1, 0.16, 0.17, 0, 0, 0, 222, 47, -536, 0, -1, -2, 0
NKF3, 3198173552, 1, 0.06, 0, 0, 0.03, 0, 0, 4, 1, -1, 1.06, 0, 0, 0
NKF4, 3198173552, 1, 0.02, 0, 0, 0.01, 0, 0.0002925871, 0, 0, 0, 16, 109375, 0, 0
NKQ, 3198173552, 1, 0.3535259, 0.002726265, -0.00126544, -0.9354199
AHR2, 3198173552, 0.1, 0.09, 220.3, 584.02, -35.363257, 149.165231, -0.3444887, -0.001055768, 0.000556681, 0.9387897
SIM, 3198173552, 0, 0, 220.1, 584.1, -35.363257, 149.165231, -0.3429095, 0, 0, 0.9393684
POS, 3198173552, -35.3632566, 149.1652309, 584.02, 0.00996077, -3.92303E-05
MOTB, 3198173552, 0.9729814, 0.9835181, 0.001728275, 1
RCIN, 3198173552, 1500, 1500, 1000, 1500, 1800, 1000, 1000, 1800, 0, 0, 0, 0, 0, 0
RCOU, 3198173552, 1000, 1000, 1000, 1000, 0, 0, 0, 0, 0, 0, 0, 0, 0, 0
PSC, 3198173552, 0.5763737, 0.09307611, 0.4992972, 0.09711505, 0, 0, 0.07847875, -0.003843403, 0.05800321, -0.004107371, 0.05880595, -0.004108221
VIBE, 3198173552, 0, 0.004321508, 0.004156953, 0.003515445, 0
VIBE, 3198173552, 1, 0.008144414, 0.008217096, 0.007855083, 0
CTRL, 3198173552, 0.002732058, 8.247577E-06, 0.002712931, 1.106947E-05, 0.0002009165
DSF, 3198188546, 1, 87, 3525, 199270, 203312, 201261
IMU, 3198193544, 0, 0.002869717, 0.002844741, 0.002890949, -0.0006427235, -0.0001081433, -9.81677, 0, 0, 23, 1, 1, 999, 999
IMU, 3198193544, 1, 0.002873477, 0.002687205, 0.00273436, -5.325773E-05, -0.0009045412, -9.817707, 0, 0, 23, 1, 1, 760, 799
GPS, 3198213536, 0, 6, 488687200, 2139, 10, 1.21, -35.363257, 149.165231, 584.09, 0, 7.125, 0, 0, 1
GPA, 3198213536, 0, 2, 0.3, 0.3, 0.04, 0, 1, 3198183, 200
IMU, 3198233528, 0, 0.002807397, 0.002824072, 0.00281181, -0.001636862, -0.0004957522, -9.818056, 0, 0, 23, 1, 1, 999, 999
IMU, 3198233528, 1, 0.003022937, 0.003339272, 0.003053466, -0.0004816788, 0.0009173339, -9.817413, 0, 0, 23, 1, 1, 760, 799
BAT, 3198273512, 0, 12.58798, 12.58898, 0, 1604.946, 20.20303, 0, 0.001728275
MAG, 3198273512, 0, -200, 107, -538, 5, 13, -18, 0, 0, 0, 1, 3198273512
MAG, 3198273512, 1, -200, 107, -538, 5, 13, -18, 0, 0, 0, 1, 3198273512
MAG, 3198273512, 2, -200, 107, -538, 5, 13, -18, 0, 0, 0, 1, 3198273512
BARO, 3198273512, 0, 0, 94502.7, 35, 0, 3198273, 0, 25.52884, 1
BARO, 3198273512, 1, 0.08216608, 94502.83, 35, 0, 3198273, 0, 25.52884, 1
CTUN, 3198273512, 1.28746E-05, 2.332896E-10, 9.012007E-06, 0.3769027, -6.00992E-05, -6.00992E-05, 0, NaN, 0, 0.009939901, 0, 0
FTN, 3198273512, 1, 80, 0, 0, 0
ATT, 3198273512, 0, 0.24, 0, 0.24, 221.39, 221.4, 0, 0, 2
RATE, 3198273512, -1.105074, 0.05743049, -0.002735027, -1.089754, 0.06349808, -0.002714039, 0.002313468, 0.06649651, -0.0002038426, 0, -0.02565384, 9.012007E-06
NKF1, 3198273512, 0, 0.24, 0.24, 221.39, 0.07905395, -0.00387628, 0.0006034906, 0.0001427744, 0.4999353, 0.09708002, 6.00992E-05, 0.1, 0.09, 0.09, 584.03
NKF2, 3198273512, 0, -1, 0.16, 0.17, 0, 0, 0, 222, 47, -536, 0, -1, -2, 0
NKF3, 3198273512, 0, 0.06, 0, 0, 0.03, 0, 0, 4, 1, -1, 1.04, 0, 0, 0
NKF4, 3198273512, 0, 0.02, 0, 0, 0.01, 0, 0.0002932227, 0, 0, 0, 16, 109375, 0, 0
NKF5, 3198273512, 0, 0, 0, 0, 0, 0.13, 0.13, 0, 0, 0.5, 0.0006773565, 0.002822132, 0.003508081
NKQ, 3198273512, 0, 0.3533998, 0.00273421, -0.001257383, -0.9354675
NKF1, 3198273512, 1, 0.24, 0.24, 221.41, 0.07839228, -0.003605355, 0.0003111508, -8.505914E-05, 0.4996003, 0.0972111, 0.0005608012, 0.1, 0.09, 0.09, 584.09
NKF2, 3198273512, 1, -1, 0.16, 0.17, 0, 0, 0, 222, 47, -536, 0, -1, -2, 0
NKF3, 3198273512, 1, 0.06, 0, 0, 0.03, 0, 0, 4, 1, -1, 1.05, 0, 0, 0
NKF4, 3198273512, 1, 0.02, 0, 0, 0.01, 0, 0.0002925605, 0, 0, 0, 16, 109375, 0, 0
NKQ, 3198273512, 1, 0.3535599, 0.002735559, -0.00126832, -0.935407
AHR2, 3198273512, 0.1, 0.09, 220.3, 584.02, -35.363257, 149.165231, -0.3444878, -0.001054412, 0.0005541271, 0.93879
SIM, 3198273512, 0, 0, 220.1, 584.1, -35.363257, 149.165231, -0.3429095, 0, 0, 0.9393684
POS, 3198273512, -35.3632566, 149.1652309, 584.02, 0.009939901, -6.00992E-05
MOTB, 3198273512, 0.9729814, 0.9835181, 0.001728275, 1
RCIN, 3198273512, 1500, 1500, 1000, 1500, 1800, 1000, 1000, 1800, 0, 0, 0, 0, 0, 0
RCOU, 3198273512, 1000, 1000, 1000, 1000, 0, 0, 0, 0, 0, 0, 0, 0, 0, 0
PSC, 3198273512, 0.5763737, 0.09307611, 0.4999353, 0.09708002, 0, 0, 0.07905395, -0.00387628, 0.05800321, -0.004107371, 0.05888263, -0.004118304
VIBE, 3198273512, 0, 0.004159521, 0.004051623, 0.004009412, 0
VIBE, 3198273512, 1, 0.007534409, 0.008109717, 0.007545297, 0
CTRL, 3198273512, 0.002733998, 7.962109E-06, 0.002714381, 9.839408E-06, 0.0002024882
IMU, 3198273512, 0, 0.002830048, 0.002817409, 0.002801167, -0.002139563, -0.001535066, -9.81752, 0, 0, 23, 1, 1, 999, 999
IMU, 3198273512, 1, 0.002942776, 0.002882849, 0.002642583, -0.001126147, -0.0002631758, -9.817005, 0, 0, 23, 1, 1, 760, 799
IMU, 3198313496, 0, 0.002871055, 0.002883859, 0.002853738, -0.001017848, -0.0009218976, -9.818494, 0, 0, 23, 1, 1, 999, 999
IMU, 3198313496, 1, 0.002778424, 0.002811029, 0.002595542, -0.002550062, -0.001937856, -9.816535, 0, 0, 23, 1, 1, 760, 799
IMU, 3198353480, 0, 0.002846394, 0.002812227, 0.002830914, -0.0002005369, 0.000199849, -9.817337, 0, 0, 23, 1, 1, 999, 999
IMU, 3198353480, 1, 0.003001752, 0.002745826, 0.002933615, 0.0006761475, 0.0003581786, -9.818047, 0, 0, 23, 1, 1, 760, 799
BAT, 3198373472, 0, 12.58798, 12.58898, 0, 1604.946, 20.20303, 0, 0.001728275
MAG, 3198373472, 0, -200, 107, -538, 5, 13, -18, 0, 0, 0, 1, 3198373472
MAG, 3198373472, 1, -200, 107, -538, 5, 13, -18, 0, 0, 0, 1, 3198373472
MAG, 3198373472, 2, -200, 107, -538, 5, 13, -18, 0, 0, 0, 1, 3198373472
BARO, 3198373472, 0, 0, 94502.7, 35, 0, 3198373, 0, 25.52884, 1
BARO, 3198373472, 1, 0.1205103, 94502.44, 35, 0, 3198373, 0, 25.52884, 1
CTUN, 3198373472, 4.252791E-05, 7.706118E-10, 1.074765E-05, 0.3769027, -6.744709E-05, -6.744709E-05, 0, NaN, 0, 0.009932552, 0, 0
FTN, 3198373472, 1, 80, 0, 0, 0
ATT, 3198373472, 0, 0.24, 0, 0.24, 221.39, 221.4, 0, 0, 2
RATE, 3198373472, -1.105183, 0.06030051, -0.002746717, -1.089642, 0.07087179, -0.002762558, 0.002334869, 0.07145845, -0.0002080482, 0, -0.08468628, 1.074765E-05
NKF1, 3198373472, 0, 0.24, 0.24, 221.39, 0.07866281, -0.003895654, 0.000581486, 9.002374E-05, 0.499442, 0.09710015, 6.744709E-05, 0.1, 0.09, 0.09, 584.03
NKF2, 3198373472, 0, -1, 0.16, 0.17, 0, 0, 0, 222, 47, -536, 0, -1, -2, 0
NKF3, 3198373472, 0, 0.06, 0, 0, 0.03, 0, 0, 4, 1, -1, 1.05, 0, 0, 0
NKF4, 3198373472, 0, 0.02, 0, 0, 0.01, 0, 0.0002934576, 0, 0, 0, 16, 109375, 0, 0
NKF5, 3198373472, 0, 0, 0, 0, 0, 0.13, 0.13, 0, 0, 0.5, 0.0008288278, 0.002012485, 0.002599403
NKQ, 3198373472, 0, 0.3534355, 0.002736153, -0.001258419, -0.935454
NKF1, 3198373472, 1, 0.24, 0.24, 221.41, 0.07814883, -0.003668162, 0.0003450678, -4.895674E-05, 0.499078, 0.09724016, 0.0005514009, 0.1, 0.09, 0.09, 584.09
NKF2, 3198373472, 1, -1, 0.16, 0.17, 0, 0, 0, 222, 47, -536, 0, -1, -2, 0
NKF3, 3198373472, 1, 0.06, 0, 0, 0.03, 0, 0, 4, 1, -1, 1.06, 0, 0, 0
NKF4, 3198373472, 1, 0.02, 0, 0, 0.01, 0, 0.0002927646, 0, 0, 0, 16, 109375, 0, 0
NKQ, 3198373472, 1, 0.3535914, 0.002737459, -0.001273949, -0.9353951
AHR2, 3198373472, 0.1, 0.09, 220.3, 584.02, -35.363257, 149.165231, -0.3444861, -0.001054044, 0.0005572306, 0.9387906
SIM, 3198373472, 0, 0, 220.1, 584.1, -35.363257, 149.165231, -0.3429095, 0, 0, 0.9393684
POS, 3198373472, -35.3632566, 149.1652309, 584.02, 0.009932552, -6.744709E-05
MOTB, 3198373472, 0.9729814, 0.9835181, 0.001728275, 1
RCIN, 3198373472, 1500, 1500, 1000, 1500, 1800, 1000, 1000, 1800, 0, 0, 0, 0, 0, 0
RCOU, 3198373472, 1000, 1000, 1000, 1000, 0, 0, 0, 0, 0, 0, 0, 0, 0, 0
PSC, 3198373472, 0.5763737, 0.09307611, 0.499442, 0.09710014, 0, 0, 0.07866281, -0.003895654, 0.05800321, -0.004107371, 0.05892561, -0.004121609
VIBE, 3198373472, 0, 0.004259245, 0.00408723, 0.003856077, 0
VIBE, 3198373472, 1, 0.007253407, 0.007976289, 0.008393597, 0
CTRL, 3198373472, 0.002738309, 7.827175E-06, 0.002717493, 1.040397E-05, 0.0002034207
IMU, 3198393464, 0, 0.002914731, 0.002853128, 0.002762657, 0.0004249604, 0.0006649219, -9.816686, 0, 0, 23, 1, 1, 999, 999
IMU, 3198393464, 1, 0.002724432, 0.002829422, 0.00284719, 0.0002268834, -0.0002395436, -9.817466, 0, 0, 23, 1, 1, 760, 799
GPS, 3198413456, 0, 6, 488687400, 2139, 10, 1.21, -35.363257, 149.165231, 584.09, 0, 7.125, 0, 0, 1
GPA, 3198413456, 0, 2, 0.3, 0.3, 0.04, 0, 1, 3198383, 200
IMU, 3198433448, 0, 0.002873585, 0.002922491, 0.002812603, -0.0008166502, -0.001433059, -9.817462, 0, 0, 23, 1, 1, 999, 999
IMU, 3198433448, 1, 0.002913536, 0.002808662, 0.002568756, -0.003456312, 0.001369584, -9.817612, 0, 0, 23, 1, 1, 760, 799
BAT, 3198473432, 0, 12.58798, 12.58898, 0, 1604.946, 20.20303, 0, 0.001728275
MAG, 3198473432, 0, -200, 107, -538, 5, 13, -18, 0, 0, 0, 1, 3198473432
MAG, 3198473432, 1, -200, 107, -538, 5, 13, -18, 0, 0, 0, 1, 3198473432
MAG, 3198473432, 2, -200, 107, -538, 5, 13, -18, 0, 0, 0, 1, 3198473432
BARO, 3198473432, 0, 0, 94502.7, 35, 0, 3198473, 0, 25.52884, 1
BARO, 3198473432, 1, -0.05477739, 94504.35, 35, 0, 3198473, 0, 25.52884, 1
CTUN, 3198473432, -3.21269E-05, -5.87889E-10, 1.502499E-05, 0.3769027, -8.409441E-05, -8.409441E-05, 0, NaN, 0, 0.009915905, 0, 0
FTN, 3198473432, 1, 80, 0, 0, 0
DU32, 3198473432, 7, 6350296
TERR, 3198473432, 2, -35.3632566, 149.1652309, 100, 583.8874, 0.009915905, 0, 504
ATT, 3198473432, 0, 0.24, 0, 0.24, 221.4, 221.41, 0, 0, 2
RATE, 3198473432, -1.108863, 0.05910047, -0.002747438, -1.093159, 0.06829876, -0.002751333, 0.002360104, 0.07196894, -0.0002077285, 0, 0.06418228, 1.502499E-05
NKF1, 3198473432, 0, 0.24, 0.24, 221.4, 0.07921347, -0.00401631, 0.0005943818, 9.801968E-05, 0.5000689, 0.09705443, 8.409441E-05, 0.1, 0.09, 0.09, 584.03
NKF2, 3198473432, 0, -1, 0.16, 0.17, 0, 0, 0, 222, 47, -536, 0, -1, -2, 0
NKF3, 3198473432, 0, 0.06, 0, 0, 0.03, 0, 0, 4, 1, -1, 1.05, 0, 0, 0
NKF4, 3198473432, 0, 0.02, 0, 0, 0.01, 0, 0.0002936385, 0, 0, 0, 16, 109375, 0, 0
NKF5, 3198473432, 0, 0, 0, 0, 0, 0.13, 0.13, 0, 0, 0.5, 0.0006775758, 0.002852134, 0.003543339
NKQ, 3198473432, 0, 0.3534697, 0.002741476, -0.001260906, -0.9354411
NKF1, 3198473432, 1, 0.24, 0.24, 221.41, 0.07883432, -0.003736555, 0.000397642, 4.817281E-06, 0.4997686, 0.0971944, 0.0005489284, 0.1, 0.09, 0.09, 584.09
NKF2, 3198473432, 1, -1, 0.16, 0.17, 0, 0, 0, 222, 47, -536, 0, -1, -2, 0
NKF3, 3198473432, 1, 0.06, 0, 0, 0.03, 0, 0, 4, 1, -1, 1.06, 0, 0, 0
NKF4, 3198473432, 1, 0.02, 0, 0, 0.01, 0, 0.0002930069, 0, 0, 0, 16, 109375, 0, 0
NKQ, 3198473432, 1, 0.3536237, 0.002739301, -0.001279071, -0.9353828
AHR2, 3198473432, 0.1, 0.09, 220.3, 584.02, -35.363257, 149.165231, -0.3444843, -0.001051874, 0.0005585852, 0.9387913
SIM, 3198473432, 0, 0, 220.1, 584.1, -35.363257, 149.165231, -0.3429095, 0, 0, 0.9393684
POS, 3198473432, -35.3632566, 149.1652309, 584.02, 0.009915905, -8.409441E-05
MOTB, 3198473432, 0.9729814, 0.9835181, 0.001728275, 1
RCIN, 3198473432, 1500, 1500, 1000, 1500, 1800, 1000, 1000, 1800, 0, 0, 0, 0, 0, 0
RCOU, 3198473432, 1000, 1000, 1000, 1000, 0, 0, 0, 0, 0, 0, 0, 0, 0, 0
PSC, 3198473432, 0.5763737, 0.09307611, 0.5000689, 0.09705443, 0, 0, 0.07921347, -0.00401631, 0.05800321, -0.004107371, 0.05904067, -0.004128171
VIBE, 3198473432, 0, 0.003914951, 0.00399417, 0.003898813, 0
VIBE, 3198473432, 1, 0.007085276, 0.007224218, 0.008557613, 0
CTRL, 3198473432, 0.002741442, 8.97046E-06, 0.002720678, 1.141768E-05, 0.0002044941
IMU, 3198473432, 0, 0.002856886, 0.002899097, 0.00289423, -0.0001664395, -0.0007842328, -9.818397, 0, 0, 23, 1, 1, 999, 999
IMU, 3198473432, 1, 0.002838658, 0.0027207, 0.00282808, -0.001783874, -0.001995545, -9.815849, 0, 0, 23, 1, 1, 760, 799
IMU, 3198513416, 0, 0.002878398, 0.002864649, 0.002725259, -0.001768227, -0.001655194, -9.818993, 0, 0, 23, 1, 1, 999, 999
IMU, 3198513416, 1, 0.002939729, 0.003053813, 0.002522776, -0.0008263448, -0.000339854, -9.815176, 0, 0, 23, 1, 1, 760, 799
IMU, 3198553400, 0, 0.002913314, 0.002836407, 0.002902259, -0.001974935, -0.001004548, -9.817747, 0, 0, 23, 1, 1, 999, 999
IMU, 3198553400, 1, 0.002646806, 0.002852752, 0.002909482, -0.0002012441, -0.0004163753, -9.819338, 0, 0, 23, 1, 1, 760, 799
BAT, 3198573392, 0, 12.58798, 12.58898, 0, 1604.946, 20.20303, 0, 0.001728275
MAG, 3198573392, 0, -200, 107, -538, 5, 13, -18, 0, 0, 0, 1, 3198573392
MAG, 3198573392, 1, -200, 107, -538, 5, 13, -18, 0, 0, 0, 1, 3198573392
MAG, 3198573392, 2, -200, 107, -538, 5, 13, -18, 0, 0, 0, 1, 3198573392
BARO, 3198573392, 0, 0, 94502.7, 35, 0, 3198573, 0, 25.52884, 1
BARO, 3198573392, 1, 0.2273262, 94501.27, 35, 0, 3198573, 0, 25.52884, 1
CTUN, 3198573392, -2.44379E-05, -4.471883E-10, 3.744477E-06, 0.3769027, -8.666317E-05, -8.666317E-05, 0, NaN, 0, 0.009913336, 0, 0
FTN, 3198573392, 1, 80, 0, 0, 0
ATT, 3198573392, 0, 0.24, 0, 0.24, 221.4, 221.41, 0, 0, 2
RATE, 3198573392, -1.109033, 0.06200574, -0.002765602, -1.092986, 0.06607583, -0.002728177, 0.002266496, 0.07296772, -0.000211022, 0, 0.04882813, 3.744477E-06
NKF1, 3198573392, 0, 0.24, 0.24, 221.4, 0.07879419, -0.003964726, 0.0005569542, 3.423884E-05, 0.4995562, 0.09706867, 8.666317E-05, 0.1, 0.09, 0.09, 584.03
NKF2, 3198573392, 0, -1, 0.16, 0.17, 0, 0, 0, 222, 47, -536, 0, -1, -2, 0
NKF3, 3198573392, 0, 0.06, 0, 0, 0.03, 0, 0, 4, 1, -1, 1.05, 0, 0, 0
NKF4, 3198573392, 0, 0.02, 0, 0, 0.01, 0, 0.0002940319, 0, 0, 0, 16, 109375, 0, 0
NKF5, 3198573392, 0, 0, 0, 0, 0, 0.13, 0.13, 0, 0, 0.5, 0.0008294838, 0.001999738, 0.002583228
NKQ, 3198573392, 0, 0.3535052, 0.002742359, -0.001261692, -0.9354277
NKF1, 3198573392, 1, 0.24, 0.24, 221.42, 0.07851818, -0.003754498, 0.0003435305, -3.801263E-05, 0.4992788, 0.09720835, 0.0005424741, 0.1, 0.09, 0.09, 584.09
NKF2, 3198573392, 1, -1, 0.16, 0.17, 0, 0, 0, 222, 47, -536, 0, -1, -2, 0
NKF3, 3198573392, 1, 0.06, 0, 0, 0.03, 0, 0, 4, 1, -1, 1.07, 0, 0, 0
NKF4, 3198573392, 1, 0.02, 0, 0, 0.01, 0, 0.0002932625, 0, 0, 0, 16, 109375, 0, 0
NKQ, 3198573392, 1, 0.3536578, 0.002741639, -0.001273579, -0.93537
AHR2, 3198573392, 0.1, 0.09, 220.3, 584.02, -35.363257, 149.165231, -0.3444839, -0.001051471, 0.0005549221, 0.9387915
SIM, 3198573392, 0, 0, 220.1, 584.1, -35.363257, 149.165231, -0.3429095, 0, 0, 0.9393684
POS, 3198573392, -35.3632566, 149.1652309, 584.02, 0.009913336, -8.666317E-05
MOTB, 3198573392, 0.9729814, 0.9835181, 0.001728275, 1
RCIN, 3198573392, 1500, 1500, 1000, 1500, 1800, 1000, 1000, 1800, 0, 0, 0, 0, 0, 0
RCOU, 3198573392, 1000, 1000, 1000, 1000, 0, 0, 0, 0, 0, 0, 0, 0, 0, 0
PSC, 3198573392, 0.5763737, 0.09307611, 0.4995562, 0.09706867, 0, 0, 0.07879419, -0.003964726, 0.05800321, -0.004107371, 0.05906247, -0.004134232
VIBE, 3198573392, 0, 0.003979922, 0.004357849, 0.004024039, 0
VIBE, 3198573392, 1, 0.007465823, 0.007399942, 0.00775221, 0
CTRL, 3198573392, 0.002745124, 9.286004E-06, 0.002724255, 1.164471E-05, 0.0002052257
IMU, 3198593384, 0, 0.002809177, 0.002782191, 0.002838289, -0.001061411, -0.001244121, -9.817352, 0, 0, 23, 1, 1, 999, 999
IMU, 3198593384, 1, 0.003188521, 0.002869375, 0.002702601, -0.001712301, -0.001658319, -9.818358, 0, 0, 23, 1, 1, 760, 799
GPS, 3198613376, 0, 6, 488687600, 2139, 10, 1.21, -35.363257, 149.165231, 584.09, 0, 7.125, 0, 0, 1
GPA, 3198613376, 0, 2, 0.3, 0.3, 0.04, 0, 1, 3198583, 200
IMU, 3198633368, 0, 0.002910742, 0.002840873, 0.002858082, -0.001730332, -0.001847507, -9.816839, 0, 0, 23, 1, 1, 999, 999
IMU, 3198633368, 1, 0.002922044, 0.002994787, 0.002657111, -0.003488476, -0.0004232568, -9.815227, 0, 0, 23, 1, 1, 760, 799
BAT, 3198673352, 0, 12.58798, 12.58898, 0, 1604.946, 20.20303, 0, 0.001728275
MAG, 3198673352, 0, -200, 107, -538, 5, 13, -18, 0, 0, 0, 1, 3198673352
MAG, 3198673352, 1, -200, 107, -538, 5, 13, -18, 0, 0, 0, 1, 3198673352
MAG, 3198673352, 2, -200, 107, -538, 5, 13, -18, 0, 0, 0, 1, 3198673352
BARO, 3198673352, 0, 0, 94502.7, 35, 0, 3198673, 0, 25.52884, 1
BARO, 3198673352, 1, 0.2437594, 94501.09, 35, 0, 3198673, 0, 25.52884, 1
CTUN, 3198673352, 5.12898E-05, 9.3855E-10, 2.262874E-05, 0.3769027, -9.471678E-05, -9.471678E-05, 0, NaN, 0, 0.009905283, 0, 0
FTN, 3198673352, 1, 80, 0, 0, 0
ATT, 3198673352, 0, 0.24, 0, 0.24, 221.4, 221.41, 0, 0, 2
RATE, 3198673352, -1.111349, 0.05776844, -0.002758624, -1.094252, 0.06288537, -0.002716452, 0.002334866, 0.06898815, -0.0002061987, 0, -0.1021385, 2.262874E-05
NKF1, 3198673352, 0, 0.24, 0.24, 221.4, 0.0793311, -0.00393966, 0.0005681487, 3.373094E-05, 0.5001875, 0.09702896, 9.471678E-05, 0.1, 0.09, 0.09, 584.03
NKF2, 3198673352, 0, -1, 0.16, 0.17, 0, 0, 0, 222, 47, -536, 0, -1, -2, 0
NKF3, 3198673352, 0, 0.06, 0, 0, 0.03, 0, 0, 4, 1, -1, 1.05, 0, 0, 0
NKF4, 3198673352, 0, 0.02, 0, 0, 0.01, 0, 0.0002944315, 0, 0, 0, 16, 109375, 0, 0
NKF5, 3198673352, 0, 0, 0, 0, 0, 0.13, 0.13, 0, 0, 0.5, 0.0006778912, 0.002865344, 0.003553914
NKQ, 3198673352, 0, 0.3535396, 0.002745648, -0.001264676, -0.9354147
NKF1, 3198673352, 1, 0.24, 0.24, 221.42, 0.07900005, -0.003740868, 0.0003222166, -4.244629E-05, 0.499928, 0.0971706, 0.0005416445, 0.1, 0.09, 0.09, 584.09
NKF2, 3198673352, 1, -1, 0.16, 0.17, 0, 0, 0, 222, 47, -536, 0, -1, -2, 0
NKF3, 3198673352, 1, 0.06, 0, 0, 0.03, 0, 0, 4, 1, -1, 1.07, 0, 0, 0
NKF4, 3198673352, 1, 0.02, 0, 0, 0.01, 0, 0.0002934782, 0, 0, 0, 16, 109375, 0, 0
NKQ, 3198673352, 1, 0.353691, 0.002747762, -0.001275548, -0.9353574
AHR2, 3198673352, 0.1, 0.09, 220.3, 584.02, -35.363257, 149.165231, -0.3444824, -0.001050196, 0.0005542458, 0.938792
SIM, 3198673352, 0, 0, 220.1, 584.1, -35.363257, 149.165231, -0.3429095, 0, 0, 0.9393684
POS, 3198673352, -35.3632566, 149.1652309, 584.02, 0.009905283, -9.471678E-05
MOTB, 3198673352, 0.9729814, 0.9835181, 0.001728275, 1
RCIN, 3198673352, 1500, 1500, 1000, 1500, 1800, 1000, 1000, 1800, 0, 0, 0, 0, 0, 0
RCOU, 3198673352, 1000, 1000, 1000, 1000, 0, 0, 0, 0, 0, 0, 0, 0, 0, 0
PSC, 3198673352, 0.5763737, 0.09307611, 0.5001875, 0.09702895, 0, 0, 0.0793311, -0.00393966, 0.05800321, -0.004107371, 0.05914366, -0.004163997
VIBE, 3198673352, 0, 0.004022675, 0.004498221, 0.004223439, 0
VIBE, 3198673352, 1, 0.007676415, 0.008783324, 0.007701256, 0
CTRL, 3198673352, 0.00274783, 9.653553E-06, 0.002724723, 1.07426E-05, 0.0002063066
IMU, 3198673352, 0, 0.002834862, 0.002805819, 0.002842926, -0.0007039548, -0.00153253, -9.816736, 0, 0, 23, 1, 1, 1000, 1000
IMU, 3198673352, 1, 0.002690982, 0.002853104, 0.002760742, 0.001381367, -0.0001481667, -9.817773, 0, 0, 23, 1, 1, 760, 799
IMU, 3198713336, 0, 0.002838563, 0.002852319, 0.002782137, -0.001785585, -0.0009969651, -9.81872, 0, 0, 23, 1, 1, 1000, 1000
IMU, 3198713336, 1, 0.002997616, 0.00262055, 0.00285381, 0.00244782, 1.023897E-05, -9.817459, 0, 0, 23, 1, 1, 760, 799
IMU, 3198753320, 0, 0.002857422, 0.002811175, 0.002786077, -0.001409449, -0.00178028, -9.817905, 0, 0, 23, 1, 1, 1000, 1000
IMU, 3198753320, 1, 0.002945641, 0.002929503, 0.002924577, -0.001937704, -0.001825433, -9.814649, 0, 0, 23, 1, 1, 760, 799
BAT, 3198773312, 0, 12.58798, 12.58898, 0, 1604.946, 20.20303, 0, 0.001728275
MAG, 3198773312, 0, -200, 107, -538, 5, 13, -18, 0, 0, 0, 1, 3198773312
MAG, 3198773312, 1, -200, 107, -538, 5, 13, -18, 0, 0, 0, 1, 3198773312
MAG, 3198773312, 2, -200, 107, -538, 5, 13, -18, 0, 0, 0, 1, 3198773312
BARO, 3198773312, 0, 0, 94502.7, 35, 0, 3198773, 0, 25.52884, 1
BARO, 3198773312, 1, 0.2054152, 94501.51, 35, 0, 3198773, 0, 25.52884, 1
CTUN, 3198773312, 5.963445E-05, 1.091248E-09, 2.312059E-05, 0.3769027, -9.407596E-05, -9.407596E-05, 0, NaN, 0, 0.009905924, 0, 0
FTN, 3198773312, 1, 80, 0, 0, 0
ATT, 3198773312, 0, 0.24, 0, 0.24, 221.41, 221.42, 0, 0, 2
RATE, 3198773312, -1.111075, 0.0597201, -0.00275858, -1.09453, 0.06591491, -0.002741971, 0.002388855, 0.06606226, -0.0002011705, 0, -0.1187325, 2.312059E-05
NKF1, 3198773312, 0, 0.24, 0.24, 221.41, 0.07893697, -0.003893901, 0.0005785484, 2.626425E-05, 0.499671, 0.09705589, 9.407596E-05, 0.1, 0.09, 0.09, 584.03
NKF2, 3198773312, 0, -1, 0.16, 0.17, 0, 0, 0, 222, 47, -536, 0, -1, -2, 0
NKF3, 3198773312, 0, 0.06, 0, 0, 0.03, 0, 0, 4, 1, -1, 1.06, 0, 0, 0
NKF4, 3198773312, 0, 0.02, 0, 0, 0.01, 0, 0.0002949367, 0, 0, 0, 16, 109375, 0, 0
NKF5, 3198773312, 0, 0, 0, 0, 0, 0.13, 0.13, 0, 0, 0.5, 0.0008308418, 0.002014257, 0.002607346
NKQ, 3198773312, 0, 0.3535728, 0.002745615, -0.001263748, -0.9354021
NKF1, 3198773312, 1, 0.24, 0.24, 221.43, 0.07857667, -0.004019138, 0.0003646165, -1.746533E-06, 0.4994234, 0.09717487, 0.0005365153, 0.1, 0.09, 0.09, 584.09
NKF2, 3198773312, 1, -1, 0.16, 0.17, 0, 0, 0, 222, 47, -536, 0, -1, -2, 0
NKF3, 3198773312, 1, 0.06, 0, 0, 0.03, 0, 0, 4, 1, -1, 1.08, 0, 0, 0
NKF4, 3198773312, 1, 0.02, 0, 0, 0.01, 0, 0.00029407, 0, 0, 0, 16, 109375, 0, 0
NKQ, 3198773312, 1, 0.3537233, 0.0027477, -0.001277495, -0.9353452
AHR2, 3198773312, 0.1, 0.09, 220.3, 584.02, -35.363257, 149.165231, -0.34448, -0.001047741, 0.0005530878, 0.9387929
SIM, 3198773312, 0, 0, 220.1, 584.1, -35.363257, 149.165231, -0.3429095, 0, 0, 0.9393684
POS, 3198773312, -35.3632566, 149.1652309, 584.02, 0.009905924, -9.407596E-05
MOTB, 3198773312, 0.9729814, 0.9835181, 0.001728275, 1
RCIN, 3198773312, 1500, 1500, 1000, 1500, 1800, 1000, 1000, 1800, 0, 0, 0, 0, 0, 0
RCOU, 3198773312, 1000, 1000, 1000, 1000, 0, 0, 0, 0, 0, 0, 0, 0, 0, 0
PSC, 3198773312, 0.5763737, 0.09307611, 0.499671, 0.09705589, 0, 0, 0.07893697, -0.0038939, 0.05800321, -0.004107371, 0.05913677, -0.004145095
VIBE, 3198773312, 0, 0.003817497, 0.003627605, 0.004216609, 0
VIBE, 3198773312, 1, 0.007259516, 0.008365504, 0.008163879, 0
CTRL, 3198773312, 0.002749912, 9.078188E-06, 0.002727076, 1.006461E-05, 0.0002053139
IMU, 3198793304, 0, 0.002896089, 0.002875713, 0.002762744, -0.00164761, 0.0002481605, -9.81778, 0, 0, 23, 1, 1, 1000, 1000
IMU, 3198793304, 1, 0.002885078, 0.002846314, 0.002910807, -0.00261295, 0.0007775737, -9.815153, 0, 0, 23, 1, 1, 760, 799
GPS, 3198813296, 0, 6, 488687800, 2139, 10, 1.21, -35.363257, 149.165231, 584.09, 0, 7.125, 0, 0, 1
GPA, 3198813296, 0, 2, 0.3, 0.3, 0.04, 0, 1, 3198783, 200
IMU, 3198833288, 0, 0.002823526, 0.002849603, 0.002856462, -0.001261256, -0.001061415, -9.818573, 0, 0, 23, 1, 1, 1000, 1000
IMU, 3198833288, 1, 0.002736615, 0.003094166, 0.002553191, 0.0001116374, -0.0007782266, -9.819051, 0, 0, 23, 1, 1, 760, 799
BAT, 3198873272, 0, 12.58798, 12.58898, 0, 1604.946, 20.20303, 0, 0.001728275
MAG, 3198873272, 0, -200, 107, -538, 5, 13, -18, 0, 0, 0, 1, 3198873272
MAG, 3198873272, 1, -200, 107, -538, 5, 13, -18, 0, 0, 0, 1, 3198873272
MAG, 3198873272, 2, -200, 107, -538, 5, 13, -18, 0, 0, 0, 1, 3198873272
BARO, 3198873272, 0, 0, 94502.7, 35, 0, 3198873, 0, 25.52884, 1
BARO, 3198873272, 1, 0.1615933, 94501.98, 35, 0, 3198873, 0, 25.52884, 1
CTUN, 3198873272, -1.290441E-05, -2.376756E-10, 6.567279E-07, 0.3769027, -0.0001002884, -0.0001002884, 0, NaN, 0, 0.009899711, 0, 0
FTN, 3198873272, 1, 80, 0, 0, 0
ATT, 3198873272, 0, 0.24, 0, 0.24, 221.41, 221.42, 0, 0, 2
RATE, 3198873272, -1.113029, 0.05993193, -0.002761346, -1.096157, 0.06792304, -0.002751591, 0.002374476, 0.06348551, -0.0002004308, 0, 0.02574921, 6.567279E-07
NKF1, 3198873272, 0, 0.24, 0.24, 221.41, 0.07947544, -0.003938002, 0.0005463107, -7.51483E-06, 0.5003009, 0.09702497, 0.0001002884, 0.1, 0.09, 0.09, 584.03
NKF2, 3198873272, 0, -1, 0.16, 0.17, 0, 0, 0, 222, 47, -536, 0, -1, -2, 0
NKF3, 3198873272, 0, 0.06, 0, 0, 0.03, 0, 0, 4, 1, -1, 1.06, 0, 0, 0
NKF4, 3198873272, 0, 0.02, 0, 0, 0.01, 0, 0.0002953927, 0, 0, 0, 16, 109375, 0, 0
NKF5, 3198873272, 0, 0, 0, 0, 0, 0.13, 0.13, 0, 0, 0.5, 0.0006799119, 0.002868132, 0.00355681
NKQ, 3198873272, 0, 0.3536068, 0.002750059, -0.001266158, -0.9353892
NKF1, 3198873272, 1, 0.24, 0.24, 221.43, 0.07921687, -0.004083924, 0.0004108706, 4.589084E-05, 0.5000644, 0.097113, 0.0005434432, 0.1, 0.09, 0.09, 584.09
NKF2, 3198873272, 1, -1, 0.16, 0.17, 0, 0, 0, 222, 47, -536, 0, -1, -2, 0
NKF3, 3198873272, 1, 0.06, 0, 0, 0.03, 0, 0, 4, 1, -1, 1.08, 0, 0, 0
NKF4, 3198873272, 1, 0.02, 0, 0, 0.01, 0, 0.0002946803, 0, 0, 0, 16, 109375, 0, 0
NKQ, 3198873272, 1, 0.3537589, 0.00275319, -0.001276938, -0.9353317
AHR2, 3198873272, 0.1, 0.09, 220.3, 584.02, -35.363257, 149.165231, -0.3444797, -0.001046843, 0.0005513708, 0.938793
SIM, 3198873272, 0, 0, 220.1, 584.1, -35.363257, 149.165231, -0.3429095, 0, 0, 0.9393684
POS, 3198873272, -35.3632566, 149.1652309, 584.02, 0.009899711, -0.0001002884
MOTB, 3198873272, 0.9729814, 0.9835181, 0.001728275, 1
RCIN, 3198873272, 1500, 1500, 1000, 1500, 1800, 1000, 1000, 1800, 0, 0, 0, 0, 0, 0
RCOU, 3198873272, 1000, 1000, 1000, 1000, 0, 0, 0, 0, 0, 0, 0, 0, 0, 0
PSC, 3198873272, 0.5763737, 0.09307611, 0.5003009, 0.09702496, 0, 0, 0.07947544, -0.003938002, 0.05800321, -0.004107371, 0.05923518, -0.00415634
VIBE, 3198873272, 0, 0.004087391, 0.003846048, 0.003786361, 0
VIBE, 3198873272, 1, 0.007551377, 0.008488539, 0.007540315, 0
CTRL, 3198873272, 0.002752052, 9.39679E-06, 0.002728749, 1.061832E-05, 0.0002045248
IMU, 3198873272, 0, 0.002873669, 0.002894779, 0.002747447, -0.0008379625, -0.001444982, -9.818019, 0, 0, 23, 1, 1, 1000, 1000
IMU, 3198873272, 1, 0.002932634, 0.002715996, 0.002844738, 0.0009385546, 0.002592534, -9.817141, 0, 0, 23, 1, 1, 760, 799
IMU, 3198913256, 0, 0.00286601, 0.00288157, 0.002794832, -0.001595755, -0.001127686, -9.815564, 0, 0, 23, 1, 1, 1000, 1000
IMU, 3198913256, 1, 0.002671579, 0.002601872, 0.002665908, -0.002264695, 0.000932708, -9.814178, 0, 0, 23, 1, 1, 760, 799
IMU, 3198953240, 0, 0.002877551, 0.002904534, 0.002768452, -0.001262378, -0.001948419, -9.817921, 0, 0, 23, 1, 1, 1000, 1000
IMU, 3198953240, 1, 0.002647743, 0.003074032, 0.002648994, 0.002759797, -0.0003398055, -9.815168, 0, 0, 23, 1, 1, 760, 799
BAT, 3198973232, 0, 12.58798, 12.58898, 0, 1604.946, 20.20303, 0, 0.001728275
MAG, 3198973232, 0, -200, 107, -538, 5, 13, -18, 0, 0, 0, 1, 3198973232
MAG, 3198973232, 1, -200, 107, -538, 5, 13, -18, 0, 0, 0, 1, 3198973232
MAG, 3198973232, 2, -200, 107, -538, 5, 13, -18, 0, 0, 0, 1, 3198973232
BARO, 3198973232, 0, 0, 94502.7, 35, 0, 3198973, 0, 25.52884, 1
BARO, 3198973232, 1, -0.01095548, 94503.82, 35, 0, 3198973, 0, 25.52884, 1
CTUN, 3198973232, 5.152822E-05, 9.490556E-10, 2.361199E-05, 0.3769027, -9.689609E-05, -9.689609E-05, 0, NaN, 0, 0.009903104, 0, 0
FTN, 3198973232, 1, 80, 0, 0, 0
ATT, 3198973232, 0, 0.24, 0, 0.24, 221.42, 221.43, 0, 0, 2
RATE, 3198973232, -1.113085, 0.05793085, -0.002752375, -1.0961, 0.0649453, -0.002724301, 0.002356594, 0.06550582, -0.0001978108, 0, -0.1026154, 2.361199E-05
NKF1, 3198973232, 0, 0.24, 0.24, 221.42, 0.07907259, -0.003854025, 0.0005676058, 8.340836E-06, 0.4997808, 0.09705724, 9.689609E-05, 0.1, 0.09, 0.09, 584.03
NKF2, 3198973232, 0, -1, 0.16, 0.17, 0, 0, 0, 222, 47, -536, 0, -1, -2, 0
NKF3, 3198973232, 0, 0.06, 0, 0, 0.03, 0, 0, 4, 1, -1, 1.07, 0, 0, 0
NKF4, 3198973232, 0, 0.02, 0, 0, 0.01, 0, 0.0002957797, 0, 0, 0, 16, 109375, 0, 0
NKF5, 3198973232, 0, 0, 0, 0, 0, 0.13, 0.13, 0, 0, 0.5, 0.0008336434, 0.002014496, 0.002608647
NKQ, 3198973232, 0, 0.3536394, 0.002751074, -0.001266653, -0.9353769
NKF1, 3198973232, 1, 0.24, 0.24, 221.43, 0.07878139, -0.004137808, 0.0005554441, 0.0001824294, 0.499568, 0.0970951, 0.0005507917, 0.1, 0.09, 0.09, 584.09
NKF2, 3198973232, 1, -1, 0.16, 0.17, 0, 0, 0, 222, 47, -536, 0, -1, -2, 0
NKF3, 3198973232, 1, 0.06, 0, 0, 0.03, 0, 0, 4, 1, -1, 1.09, 0, 0, 0
NKF4, 3198973232, 1, 0.02, 0, 0, 0.01, 0, 0.0002951921, 0, 0, 0, 16, 109375, 0, 0
NKQ, 3198973232, 1, 0.3537886, 0.002754365, -0.001270289, -0.9353205
AHR2, 3198973232, 0.1, 0.09, 220.29, 584.02, -35.363257, 149.165231, -0.3444759, -0.001045858, 0.0005476711, 0.9387944
SIM, 3198973232, 0, 0, 220.1, 584.1, -35.363257, 149.165231, -0.3429095, 0, 0, 0.9393684
POS, 3198973232, -35.3632566, 149.1652309, 584.02, 0.009903104, -9.689609E-05
MOTB, 3198973232, 0.9729814, 0.9835181, 0.001728275, 1
RCIN, 3198973232, 1500, 1500, 1000, 1500, 1800, 1000, 1000, 1800, 0, 0, 0, 0, 0, 0
RCOU, 3198973232, 1000, 1000, 1000, 1000, 0, 0, 0, 0, 0, 0, 0, 0, 0, 0
PSC, 3198973232, 0.5763737, 0.09307611, 0.4997808, 0.09705724, 0, 0, 0.07907258, -0.003854025, 0.05800321, -0.004107371, 0.05925738, -0.004156325
VIBE, 3198973232, 0, 0.004026465, 0.004129127, 0.003815526, 0
VIBE, 3198973232, 1, 0.007451389, 0.008427151, 0.007710052, 0
CTRL, 3198973232, 0.002755853, 1.018433E-05, 0.002732309, 1.117168E-05, 0.0002031413
MAV, 3198993224, 0, 52987, 4549, 0, 6, 0, 363
IMU, 3198993224, 0, 0.00291736, 0.002856257, 0.002821522, 0.0002489467, -0.00166933, -9.817122, 0, 0, 23, 1, 1, 1000, 1000
IMU, 3198993224, 1, 0.00281202, 0.002964293, 0.002614862, 0.002312198, 0.0001523829, -9.814224, 0, 0, 23, 1, 1, 760, 799
GPS, 3199013216, 0, 6, 488688000, 2139, 10, 1.21, -35.363257, 149.165231, 584.09, 0, 7.125, 0, 0, 1
GPA, 3199013216, 0, 2, 0.3, 0.3, 0.04, 0, 1, 3198983, 200
IMU, 3199033208, 0, 0.002925355, 0.00286041, 0.002809393, -0.001483324, -0.00189704, -9.815877, 0, 0, 23, 1, 1, 1000, 1000
IMU, 3199033208, 1, 0.002813447, 0.002908755, 0.002959852, 0.0001532651, 0.001380369, -9.817709, 0, 0, 23, 1, 1, 760, 799
BAT, 3199073192, 0, 12.58798, 12.58898, 0, 1604.946, 20.20303, 0, 0.001728275
MAG, 3199073192, 0, -200, 107, -538, 5, 13, -18, 0, 0, 0, 1, 3199073192
MAG, 3199073192, 1, -200, 107, -538, 5, 13, -18, 0, 0, 0, 1, 3199073192
MAG, 3199073192, 2, -200, 107, -538, 5, 13, -18, 0, 0, 0, 1, 3199073192
BARO, 3199073192, 0, 0, 94502.7, 35, 0, 3199073, 0, 25.52884, 1
BARO, 3199073192, 1, 0.2903202, 94500.58, 35, 0, 3199073, 0, 25.52884, 1
CTUN, 3199073192, 3.659725E-05, 6.740546E-10, 4.610934E-05, 0.3769027, -0.0001067707, -0.0001067707, 0, NaN, 0, 0.009893229, 0, 0
FTN, 3199073192, 1, 80, 0, 0, 0
ATT, 3199073192, 0, 0.24, 0, 0.24, 221.42, 221.43, 0, 0, 2
RATE, 3199073192, -1.115326, 0.05633285, -0.002752742, -1.09743, 0.06601275, -0.002741845, 0.002374474, 0.06530724, -0.0002019146, 0, -0.07286072, 4.610934E-05
NKF1, 3199073192, 0, 0.24, 0.24, 221.42, 0.07957984, -0.00386729, 0.0006384209, 8.548078E-05, 0.5004047, 0.09703498, 0.0001067707, 0.1, 0.09, 0.09, 584.03
NKF2, 3199073192, 0, -1, 0.16, 0.17, 0, 0, 0, 222, 47, -536, 0, -1, -2, 0
NKF3, 3199073192, 0, 0.06, 0, 0, 0.03, 0, 0, 4, 1, -1, 1.07, 0, 0, 0
NKF4, 3199073192, 0, 0.02, 0, 0, 0.01, 0, 0.0002960787, 0, 0, 0, 16, 107327, 0, 0
NKF5, 3199073192, 0, 0, 0, 0, 0, 0.13, 0.13, 0, 0, 0.5, 0.0006829168, 0.002875761, 0.003566812
NKQ, 3199073192, 0, 0.3536731, 0.002755964, -0.00127012, -0.9353642
NKF1, 3199073192, 1, 0.24, 0.24, 221.44, 0.07932656, -0.004294216, 0.0006151889, 0.0002395449, 0.5002025, 0.09701139, 0.0005775307, 0.1, 0.09, 0.09, 584.09
NKF2, 3199073192, 1, -1, 0.16, 0.17, 0, 0, 0, 222, 47, -536, 0, -1, -2, 0
NKF3, 3199073192, 1, 0.06, 0, 0, 0.03, 0, 0, 4, 1, -1, 1.08, 0, 0, 0
NKF4, 3199073192, 1, 0.02, 0, 0, 0.01, 0, 0.000295584, 0, 0, 0, 16, 107327, 0, 0
NKQ, 3199073192, 1, 0.3538263, 0.002759726, -0.001272074, -0.9353062
AHR2, 3199073192, 0.1, 0.09, 220.29, 584.02, -35.363257, 149.165231, -0.3444768, -0.001046004, 0.0005476541, 0.9387941
SIM, 3199073192, 0, 0, 220.1, 584.1, -35.363257, 149.165231, -0.3429095, 0, 0, 0.9393684
POS, 3199073192, -35.3632566, 149.1652309, 584.02, 0.009893229, -0.0001067707
MOTB, 3199073192, 0.9729814, 0.9835181, 0.001728275, 1
RCIN, 3199073192, 1500, 1500, 1000, 1500, 1800, 1000, 1000, 1800, 0, 0, 0, 0, 0, 0
RCOU, 3199073192, 1000, 1000, 1000, 1000, 0, 0, 0, 0, 0, 0, 0, 0, 0, 0
PSC, 3199073192, 0.5763737, 0.09307611, 0.5004047, 0.09703498, 0, 0, 0.07957984, -0.003867289, 0.05800321, -0.004107371, 0.05937128, -0.004183871
VIBE, 3199073192, 0, 0.004201683, 0.004005291, 0.003712268, 0
VIBE, 3199073192, 1, 0.007791439, 0.007762876, 0.008292877, 0
CTRL, 3199073192, 0.002759802, 9.679238E-06, 0.002733942, 9.749379E-06, 0.000202575
IMU, 3199073192, 0, 0.00281178, 0.002862364, 0.002779697, -0.0003706886, -0.0005633529, -9.817037, 0, 0, 23, 1, 1, 1000, 1000
IMU, 3199073192, 1, 0.002876563, 0.002778955, 0.002761812, -0.0004445814, -0.002818928, -9.818466, 0, 0, 23, 1, 1, 760, 799
IMU, 3199113176, 0, 0.002804686, 0.0028152, 0.00274484, -0.0005658484, -0.002139244, -9.816414, 0, 0, 23, 1, 1, 1000, 1000
IMU, 3199113176, 1, 0.003017378, 0.003039423, 0.002737393, -0.003723102, -0.0002805922, -9.820286, 0, 0, 23, 1, 1, 760, 799
IMU, 3199153160, 0, 0.002880468, 0.002879953, 0.002827625, -0.001144625, -0.002283825, -9.818405, 0, 0, 23, 1, 1, 1000, 1000
IMU, 3199153160, 1, 0.002763458, 0.002916604, 0.002749383, -0.0004016202, 0.001243129, -9.816437, 0, 0, 23, 1, 1, 760, 799
BAT, 3199173985, 0, 12.58798, 12.58898, 0, 1604.946, 20.20303, 0, 0.001728275
MAG, 3199173985, 0, -200, 107, -538, 5, 13, -18, 0, 0, 0, 1, 3199173985
MAG, 3199173985, 1, -200, 107, -538, 5, 13, -18, 0, 0, 0, 1, 3199173985
MAG, 3199173985, 2, -200, 107, -538, 5, 13, -18, 0, 0, 0, 1, 3199173985
BARO, 3199173985, 0, 0, 94502.7, 35, 0, 3199173, 0, 25.52884, 1
BARO, 3199173985, 1, 0.1725488, 94501.87, 35, 0, 3199173, 0, 25.52884, 1
CTUN, 3199173985, -7.140636E-05, -1.315175E-09, 2.785483E-05, 0.3769027, -0.0001197545, -0.0001197545, 0, NaN, 0, 0.009880246, 0, 0
FTN, 3199173985, 1, 80, 0, 0, 0
ATT, 3199173985, 0, 0.24, 0, 0.24, 221.42, 221.43, 0, 0, 2
RATE, 3199173985, -1.114967, 0.05895991, -0.00276675, -1.097795, 0.06790853, -0.002750099, 0.002345718, 0.06865901, -0.0002018438, 0, 0.142765, 2.785483E-05
NKF1, 3199173985, 0, 0.24, 0.24, 221.42, 0.07915688, -0.003829816, 0.0006771802, 0.0001346758, 0.4998747, 0.09707231, 0.0001197545, 0.1, 0.09, 0.09, 584.03
NKF2, 3199173985, 0, -1, 0.16, 0.17, 0, 0, 0, 222, 47, -536, 0, -1, -2, 0
NKF3, 3199173985, 0, 0.07, 0, 0, 0.03, 0, 0, 4, 1, -1, 1.08, 0, 0, 0
NKF4, 3199173985, 0, 0.02, 0, 0, 0.01, 0, 0.0002964076, 0, 0, 0, 16, 107327, 0, 0
NKF5, 3199173985, 0, 0, 0, 0, 0, 0.13, 0.13, 0, 0, 0.5, 0.0008367514, 0.002015128, 0.002608
NKQ, 3199173985, 0, 0.353707, 0.002756905, -0.001269295, -0.9353514
NKF1, 3199173985, 1, 0.24, 0.24, 221.44, 0.07918929, -0.004267599, 0.0004662951, 4.526145E-05, 0.4997667, 0.09698943, 0.0005864165, 0.1, 0.09, 0.09, 584.09
NKF2, 3199173985, 1, -1, 0.16, 0.17, 0, 0, 0, 222, 47, -536, 0, -1, -2, 0
NKF3, 3199173985, 1, 0.06, 0, 0, 0.03, 0, 0, 4, 1, -1, 1.09, 0, 0, 0
NKF4, 3199173985, 1, 0.02, 0, 0, 0.01, 0, 0.0002960085, 0, 0, 0, 16, 107327, 0, 0
NKQ, 3199173985, 1, 0.3538564, 0.00276255, -0.001270562, -0.9352948
AHR2, 3199173985, 0.09, 0.09, 220.29, 584.02, -35.363257, 149.165231, -0.3444734, -0.001046451, 0.0005448621, 0.9387953
SIM, 3199173985, 0, 0, 220.1, 584.1, -35.363257, 149.165231, -0.3429095, 0, 0, 0.9393684
POS, 3199173985, -35.3632566, 149.1652309, 584.02, 0.009880246, -0.0001197545
MOTB, 3199173985, 0.9729814, 0.9835181, 0.001728275, 1
RCIN, 3199173985, 1500, 1500, 1000, 1500, 1800, 1000, 1000, 1800, 0, 0, 0, 0, 0, 0
RCOU, 3199173985, 1000, 1000, 1000, 1000, 0, 0, 0, 0, 0, 0, 0, 0, 0, 0
PSC, 3199173985, 0.5763737, 0.09307611, 0.4998747, 0.09707231, 0, 0, 0.07915688, -0.003829816, 0.05800321, -0.004107371, 0.05938298, -0.004160067
VIBE, 3199173985, 0, 0.00385334, 0.004316427, 0.004131099, 0
VIBE, 3199173985, 1, 0.008101476, 0.007406675, 0.007595379, 0
CTRL, 3199173985, 0.002761721, 8.520484E-06, 0.002737331, 8.83227E-06, 0.0002020802
DSF, 3199191478, 1, 373, 15223, 199899, 204725, 202320
IMU, 3199193977, 0, 0.002839393, 0.002876878, 0.002893949, -0.0007914942, -0.0009026958, -9.816539, 0, 0, 23, 1, 1, 1000, 1000
IMU, 3199193977, 1, 0.002913785, 0.002921228, 0.002833729, -0.00103846, -0.00399018, -9.819614, 0, 0, 23, 1, 1, 760, 799
GPS, 3199213969, 0, 6, 488688200, 2139, 10, 1.21, -35.363257, 149.165231, 584.09, 0, 7.125, 0, 0, 1
GPA, 3199213969, 0, 2, 0.3, 0.3, 0.04, 0, 1, 3199183, 200
IMU, 3199233961, 0, 0.002781812, 0.002801227, 0.002887844, -0.0003129275, -0.002028734, -9.816203, 0, 0, 23, 1, 1, 1000, 1000
IMU, 3199233961, 1, 0.002900533, 0.002806381, 0.002828939, -0.001061779, -0.004313167, -9.819687, 0, 0, 23, 1, 1, 760, 799
BAT, 3199273945, 0, 12.58798, 12.58898, 0, 1604.946, 20.20303, 0, 0.001728275
MAG, 3199273945, 0, -200, 107, -538, 5, 13, -18, 0, 0, 0, 1, 3199273945
MAG, 3199273945, 1, -200, 107, -538, 5, 13, -18, 0, 0, 0, 1, 3199273945
MAG, 3199273945, 2, -200, 107, -538, 5, 13, -18, 0, 0, 0, 1, 3199273945
BARO, 3199273945, 0, 0, 94502.7, 35, 0, 3199273, 0, 25.52884, 1
BARO, 3199273945, 1, 0.2656703, 94500.84, 35, 0, 3199273, 0, 25.52884, 1
CTUN, 3199273945, -1.499057E-05, -2.769924E-10, 3.705161E-05, 0.3769027, -0.0001430814, -0.0001430814, 0, NaN, 0, 0.009856919, 0, 0
FTN, 3199273945, 1, 80, 0, 0, 0
ATT, 3199273945, 0, 0.24, 0, 0.24, 221.43, 221.44, 0, 0, 2
RATE, 3199273945, -1.115652, 0.05608374, -0.002772097, -1.100699, 0.06542769, -0.00274466, 0.002410566, 0.06866713, -0.0002100277, 0, 0.02994537, 3.705161E-05
NKF1, 3199273945, 0, 0.24, 0.24, 221.43, 0.07979408, -0.003840309, 0.0006998545, 0.000175989, 0.5005514, 0.09705119, 0.0001430814, 0.1, 0.09, 0.09, 584.03
NKF2, 3199273945, 0, -1, 0.16, 0.17, 0, 0, 0, 222, 47, -536, 0, -1, -2, 0
NKF3, 3199273945, 0, 0.07, 0, 0, 0.03, 0, 0, 4, 1, -1, 1.08, 0, 0, 0
NKF4, 3199273945, 0, 0.02, 0, 0, 0.01, 0, 0.0002966905, 0, 0, 0, 16, 107327, 0, 0
NKF5, 3199273945, 0, 0, 0, 0, 0, 0.13, 0.13, 0, 0, 0.5, 0.0006850853, 0.002897781, 0.003597663
NKQ, 3199273945, 0, 0.3537437, 0.002761588, -0.001267932, -0.9353375
NKF1, 3199273945, 1, 0.24, 0.24, 221.45, 0.07954072, -0.004304393, 0.0003041405, -0.0001523319, 0.5003957, 0.09691852, 0.0005777391, 0.1, 0.09, 0.09, 584.09
NKF2, 3199273945, 1, -1, 0.16, 0.17, 0, 0, 0, 222, 47, -536, 0, -1, -2, 0
NKF3, 3199273945, 1, 0.06, 0, 0, 0.03, 0, 0, 4, 1, -1, 1.09, 0, 0, 0
NKF4, 3199273945, 1, 0.02, 0, 0, 0.01, 0, 0.0002963691, 0, 0, 0, 16, 107327, 0, 0
NKQ, 3199273945, 1, 0.3538882, 0.002766518, -0.001271538, -0.9352828
AHR2, 3199273945, 0.09, 0.09, 220.29, 584.02, -35.363257, 149.165231, -0.3444726, -0.001045659, 0.000542435, 0.9387956
SIM, 3199273945, 0, 0, 220.1, 584.1, -35.363257, 149.165231, -0.3429095, 0, 0, 0.9393684
POS, 3199273945, -35.3632566, 149.1652309, 584.02, 0.009856919, -0.0001430814
MOTB, 3199273945, 0.9729814, 0.9835181, 0.001728275, 1
RCIN, 3199273945, 1500, 1500, 1000, 1500, 1800, 1000, 1000, 1800, 0, 0, 0, 0, 0, 0
RCOU, 3199273945, 1000, 1000, 1000, 1000, 0, 0, 0, 0, 0, 0, 0, 0, 0, 0
PSC, 3199273945, 0.5763737, 0.09307611, 0.5005514, 0.09705119, 0, 0, 0.07979408, -0.003840309, 0.05800321, -0.004107371, 0.0594596, -0.004100238
VIBE, 3199273945, 0, 0.004146139, 0.004161855, 0.004021448, 0
VIBE, 3199273945, 1, 0.008399306, 0.007274405, 0.007609873, 0
CTRL, 3199273945, 0.002760142, 8.322527E-06, 0.002739931, 9.124059E-06, 0.0002043813
IMU, 3199273945, 0, 0.002805843, 0.002850723, 0.002836535, -0.0009786098, 0.0005734077, -9.818059, 0, 0, 23, 1, 1, 1000, 1000
IMU, 3199273945, 1, 0.002729609, 0.002933162, 0.002567873, 0.001787486, -0.00226261, -9.815459, 0, 0, 23, 1, 1, 760, 799
IMU, 3199313929, 0, 0.002834202, 0.002777176, 0.002813914, -0.0002218599, -0.0007117423, -9.817883, 0, 0, 23, 1, 1, 1000, 1000
IMU, 3199313929, 1, 0.002732175, 0.002979191, 0.002638298, 0.0006760642, 0.0002513213, -9.81837, 0, 0, 23, 1, 1, 760, 799
IMU, 3199353913, 0, 0.002894168, 0.00283007, 0.002841936, -0.0005893247, -0.0008323869, -9.816656, 0, 0, 23, 1, 1, 1000, 1000
IMU, 3199353913, 1, 0.002935904, 0.003119104, 0.002931739, 7.255372E-05, -0.004133937, -9.816208, 0, 0, 23, 1, 1, 760, 799
BAT, 3199373905, 0, 12.58798, 12.58898, 0, 1604.946, 20.20303, 0, 0.001728275
MAG, 3199373905, 0, -200, 107, -538, 5, 13, -18, 0, 0, 0, 1, 3199373905
MAG, 3199373905, 1, -200, 107, -538, 5, 13, -18, 0, 0, 0, 1, 3199373905
MAG, 3199373905, 2, -200, 107, -538, 5, 13, -18, 0, 0, 0, 1, 3199373905
BARO, 3199373905, 0, 0, 94502.7, 35, 0, 3199373, 0, 25.52884, 1
BARO, 3199373905, 1, 0.1232491, 94502.41, 35, 0, 3199373, 0, 25.52884, 1
CTUN, 3199373905, 2.211332E-05, 4.086051E-10, 3.071302E-05, 0.3769027, -0.0001551332, -0.0001551332, 0, NaN, 0, 0.009844867, 0, 0
FTN, 3199373905, 1, 80, 0, 0, 0
ATT, 3199373905, 0, 0.24, 0, 0.24, 221.43, 221.44, 0, 0, 2
RATE, 3199373905, -1.115445, 0.05521052, -0.002743213, -1.10091, 0.06778965, -0.002762913, 0.002374444, 0.06526166, -0.0002050376, 0, -0.04405975, 3.071302E-05
NKF1, 3199373905, 0, 0.24, 0.24, 221.43, 0.07939332, -0.003848574, 0.0007182246, 0.0001773222, 0.5000251, 0.09708778, 0.0001551332, 0.1, 0.09, 0.09, 584.03
NKF2, 3199373905, 0, -1, 0.16, 0.17, 0, 0, 0, 222, 47, -536, 0, -1, -2, 0
NKF3, 3199373905, 0, 0.07, 0, 0, 0.03, 0, 0, 4, 1, -1, 1.09, 0, 0, 0
NKF4, 3199373905, 0, 0.02, 0, 0, 0.01, 0, 0.000296939, 0, 0, 0, 16, 107327, 0, 0
NKF5, 3199373905, 0, 0, 0, 0, 0, 0.13, 0.13, 0, 0, 0.5, 0.0008382055, 0.001988986, 0.00257261
NKQ, 3199373905, 0, 0.3537772, 0.002760975, -0.001266943, -0.9353248
NKF1, 3199373905, 1, 0.24, 0.24, 221.45, 0.07913336, -0.004270412, 0.0002733352, -0.0002554705, 0.4998723, 0.09691385, 0.0005539646, 0.1, 0.09, 0.09, 584.09
NKF2, 3199373905, 1, -1, 0.16, 0.17, 0, 0, 0, 222, 47, -536, 0, -1, -2, 0
NKF3, 3199373905, 1, 0.07, 0, 0, 0.03, 0, 0, 4, 1, -1, 1.1, 0, 0, 0
NKF4, 3199373905, 1, 0.02, 0, 0, 0.01, 0, 0.0002967271, 0, 0, 0, 16, 107327, 0, 0
NKQ, 3199373905, 1, 0.3539222, 0.00277317, -0.001270365, -0.9352699
AHR2, 3199373905, 0.09, 0.09, 220.29, 584.02, -35.363257, 149.165231, -0.3444714, -0.001046957, 0.000541414, 0.938796
SIM, 3199373905, 0, 0, 220.1, 584.1, -35.363257, 149.165231, -0.3429095, 0, 0, 0.9393684
POS, 3199373905, -35.3632566, 149.1652309, 584.02, 0.009844867, -0.0001551332
MOTB, 3199373905, 0.9729814, 0.9835181, 0.001728275, 1
RCIN, 3199373905, 1500, 1500, 1000, 1500, 1800, 1000, 1000, 1800, 0, 0, 0, 0, 0, 0
RCOU, 3199373905, 1000, 1000, 1000, 1000, 0, 0, 0, 0, 0, 0, 0, 0, 0, 0
PSC, 3199373905, 0.5763737, 0.09307611, 0.5000251, 0.09708777, 0, 0, 0.07939332, -0.003848574, 0.05800321, -0.004107371, 0.05944164, -0.004084211
VIBE, 3199373905, 0, 0.00398963, 0.004013043, 0.003594601, 0
VIBE, 3199373905, 1, 0.007112942, 0.00802963, 0.007962775, 0
CTRL, 3199373905, 0.002762204, 8.50709E-06, 0.002741945, 8.483992E-06, 0.0002049813
IMU, 3199393897, 0, 0.002837205, 0.002783783, 0.00281238, -0.0003308116, 0.0005696955, -9.817102, 0, 0, 23, 1, 1, 1000, 1000
IMU, 3199393897, 1, 0.003038219, 0.002978789, 0.003098082, -0.002857941, -0.001810701, -9.821829, 0, 0, 23, 1, 1, 760, 799
GPS, 3199413889, 0, 6, 488688400, 2139, 10, 1.21, -35.363257, 149.165231, 584.09, 0, 7.125, 0, 0, 1
GPA, 3199413889, 0, 2, 0.3, 0.3, 0.04, 0, 1, 3199383, 200
IMU, 3199433881, 0, 0.00289726, 0.002903801, 0.002861556, -0.001235983, -0.0001992164, -9.819273, 0, 0, 23, 1, 1, 1000, 1000
IMU, 3199433881, 1, 0.002874942, 0.002773924, 0.002692265, 0.001182884, 0.002129463, -9.818359, 0, 0, 23, 1, 1, 760, 799
BAT, 3199473865, 0, 12.58798, 12.58898, 0, 1604.946, 20.20303, 0, 0.001728275
MAG, 3199473865, 0, -200, 107, -538, 5, 13, -18, 0, 0, 0, 1, 3199473865
MAG, 3199473865, 1, -200, 107, -538, 5, 13, -18, 0, 0, 0, 1, 3199473865
MAG, 3199473865, 2, -200, 107, -538, 5, 13, -18, 0, 0, 0, 1, 3199473865
BARO, 3199473865, 0, 0, 94502.7, 35, 0, 3199473, 0, 25.52884, 1
BARO, 3199473865, 1, 0.06025513, 94503.07, 35, 0, 3199473, 0, 25.52884, 1
CTUN, 3199473865, 6.911159E-05, 1.277029E-09, 1.430717E-05, 0.3769027, -0.0001749242, -0.0001749242, 0, NaN, 0, 0.009825076, 0, 0
FTN, 3199473865, 1, 80, 0, 0, 0
DU32, 3199473865, 7, 6350296
TERR, 3199473865, 2, -35.3632566, 149.1652309, 100, 583.8874, 0.009825076, 0, 504
ATT, 3199473865, 0, 0.24, 0, 0.24, 221.44, 221.45, 0, 0, 2
RATE, 3199473865, -1.115734, 0.05628616, -0.00275132, -1.100616, 0.0680076, -0.002765873, 0.002363568, 0.07002146, -0.0002099723, 0, -0.1376152, 1.430717E-05
NKF1, 3199473865, 0, 0.24, 0.24, 221.44, 0.0800015, -0.003891598, 0.0007101243, 0.0001631161, 0.5006577, 0.09706048, 0.0001749242, 0.1, 0.09, 0.09, 584.03
NKF2, 3199473865, 0, -1, 0.16, 0.17, 0, 0, 0, 222, 47, -536, 0, -1, -2, 0
NKF3, 3199473865, 0, 0.07, 0, 0, 0.03, 0, 0, 4, 1, -1, 1.09, 0, 0, 0
